[
  {
    "name": "Ha Noi",
    "code": 1,
    "division_type": "City",
    "districts": [
      {
        "name": "Ba Dinh",
        "code": 1,
        "division_type": "District",
        "province_code": 1,
        "latitude": 21.0382206,
        "longitude": 105.8270152
      },
      {
        "name": "Hoan Kiem",
        "code": 2,
        "division_type": "District",
        "province_code": 1,
        "latitude": 21.0304996,
        "longitude": 105.854389
      },
      {
        "name": "Tay Ho",
        "code": 3,
        "division_type": "District",
        "province_code": 1,
        "latitude": 21.0683576,
        "longitude": 105.8240984
      },
      {
        "name": "Long Bien",
        "code": 4,
        "division_type": "District",
        "province_code": 1,
        "latitude": 21.0398792,
        "longitude": 105.8500202
      },
      {
        "name": "Cau Giay",
        "code": 5,
        "division_type": "District",
        "province_code": 1,
        "latitude": 21.0295015,
        "longitude": 105.7914212
      },
      {
        "name": "Dong Da",
        "code": 6,
        "division_type": "District",
        "province_code": 1,
        "latitude": 21.0146852,
        "longitude": 105.8235426
      },
      {
        "name": "Hai Ba Trung",
        "code": 7,
        "division_type": "District",
        "province_code": 1,
        "latitude": 21.0064704,
        "longitude": 105.8578519
      },
      {
        "name": "Hoang Mai",
        "code": 8,
        "division_type": "District",
        "province_code": 1,
        "latitude": 20.9757581,
        "longitude": 105.8626556
      },
      {
        "name": "Thanh Xuan",
        "code": 9,
        "division_type": "District",
        "province_code": 1,
        "latitude": 20.9944171,
        "longitude": 105.8171316
      },
      {
        "name": "Soc Son",
        "code": 16,
        "division_type": "District",
        "province_code": 1,
        "latitude": 21.2572652,
        "longitude": 105.8481633
      },
      {
        "name": "Dong Anh",
        "code": 17,
        "division_type": "District",
        "province_code": 1,
        "latitude": 21.1367358,
        "longitude": 105.84603245401874
      },
      {
        "name": "Gia Lam",
        "code": 18,
        "division_type": "District",
        "province_code": 1,
        "latitude": 21.0238721,
        "longitude": 105.97050129109073
      },
      {
        "name": "Nam Tu Liem",
        "code": 19,
        "division_type": "District",
        "province_code": 1,
        "latitude": 21.0173512,
        "longitude": 105.7613329
      },
      {
        "name": "Thanh Tri",
        "code": 20,
        "division_type": "District",
        "province_code": 1,
        "latitude": 20.941461599999997,
        "longitude": 105.83603265035416
      },
      {
        "name": "Bac Tu Liem",
        "code": 21,
        "division_type": "District",
        "province_code": 1,
        "latitude": 21.0772991,
        "longitude": 105.7738059
      },
      {
        "name": "Me Linh",
        "code": 250,
        "division_type": "District",
        "province_code": 1,
        "latitude": 21.18078845,
        "longitude": 105.70725700576077
      },
      {
        "name": "Ha Dong",
        "code": 268,
        "division_type": "District",
        "province_code": 1,
        "latitude": 20.9551855,
        "longitude": 105.758011
      },
      {
        "name": "Son Tay",
        "code": 269,
        "division_type": "District",
        "province_code": 1,
        "latitude": 21.1409186,
        "longitude": 105.5060305
      },
      {
        "name": "Ba Vi",
        "code": 271,
        "division_type": "District",
        "province_code": 1,
        "latitude": 21.155976600000002,
        "longitude": 105.37494274237581
      },
      {
        "name": "Phuc Tho",
        "code": 272,
        "division_type": "District",
        "province_code": 1,
        "latitude": 21.1096428,
        "longitude": 105.57094469616789
      },
      {
        "name": "Dan Phuong",
        "code": 273,
        "division_type": "District",
        "province_code": 1,
        "latitude": 21.02624355,
        "longitude": 105.848156931239
      },
      {
        "name": "Hoai Duc",
        "code": 274,
        "division_type": "District",
        "province_code": 1,
        "latitude": 21.01903045,
        "longitude": 105.71152173592778
      },
      {
        "name": "Quoc Oai",
        "code": 275,
        "division_type": "District",
        "province_code": 1,
        "latitude": 20.990187,
        "longitude": 105.640876
      },
      {
        "name": "Thach That",
        "code": 276,
        "division_type": "District",
        "province_code": 1,
        "latitude": 21.0073844,
        "longitude": 105.49966632631347
      },
      {
        "name": "Chuong My",
        "code": 277,
        "division_type": "District",
        "province_code": 1,
        "latitude": 20.87851585,
        "longitude": 105.64923352491572
      },
      {
        "name": "Thanh Oai",
        "code": 278,
        "division_type": "District",
        "province_code": 1,
        "latitude": 20.8602693,
        "longitude": 105.78016441102196
      },
      {
        "name": "Thuong Tin",
        "code": 279,
        "division_type": "District",
        "province_code": 1,
        "latitude": 20.8738491,
        "longitude": 105.8627407
      },
      {
        "name": "Phu Xuyen",
        "code": 280,
        "division_type": "District",
        "province_code": 1,
        "latitude": 21.2323913,
        "longitude": 105.4285077
      },
      {
        "name": "ung Hoa",
        "code": 281,
        "division_type": "District",
        "province_code": 1,
        "latitude": 20.7110772,
        "longitude": 105.81433035379561
      },
      {
        "name": "My Duc",
        "code": 282,
        "division_type": "District",
        "province_code": 1,
        "latitude": 20.697382599999997,
        "longitude": 105.71577535499549
      }
    ]
  },
  {
    "name": "Ha Giang",
    "code": 2,
    "division_type": "Province",
    "districts": [
      {
        "name": "Ha Giang",
        "code": 24,
        "division_type": "City",
        "province_code": 2,
        "latitude": 22.8264592,
        "longitude": 104.9846342
      },
      {
        "name": "Dong Van",
        "code": 26,
        "division_type": "District",
        "province_code": 2,
        "latitude": 23.278105449999998,
        "longitude": 105.36249531076226
      },
      {
        "name": "Meo Vac",
        "code": 27,
        "division_type": "District",
        "province_code": 2,
        "latitude": 23.1516557,
        "longitude": 105.437853298152
      },
      {
        "name": "Yen Minh",
        "code": 28,
        "division_type": "District",
        "province_code": 2,
        "latitude": 23.07187915,
        "longitude": 105.20839490144274
      },
      {
        "name": "Quan Ba",
        "code": 29,
        "division_type": "District",
        "province_code": 2,
        "latitude": 23.0679595,
        "longitude": 104.95037589574648
      },
      {
        "name": "Vi Xuyen",
        "code": 30,
        "division_type": "District",
        "province_code": 2,
        "latitude": 22.76347785,
        "longitude": 105.04439585401522
      },
      {
        "name": "Bac Me",
        "code": 31,
        "division_type": "District",
        "province_code": 2,
        "latitude": 22.763282750000002,
        "longitude": 105.28234608698708
      },
      {
        "name": "Hoang Su Phi",
        "code": 32,
        "division_type": "District",
        "province_code": 2,
        "latitude": 22.694388099999998,
        "longitude": 104.69078956169419
      },
      {
        "name": "Xin Man",
        "code": 33,
        "division_type": "District",
        "province_code": 2,
        "latitude": 22.6344501,
        "longitude": 104.50424938229064
      },
      {
        "name": "Bac Quang",
        "code": 34,
        "division_type": "District",
        "province_code": 2,
        "latitude": 22.3933691,
        "longitude": 104.92831463191126
      },
      {
        "name": "Quang Binh",
        "code": 35,
        "division_type": "District",
        "province_code": 2,
        "latitude": 22.3848683,
        "longitude": 104.65359949614746
      }
    ]
  },
  {
    "name": "Cao Bang",
    "code": 4,
    "division_type": "Province",
    "districts": [
      {
        "name": "Cao Bang",
        "code": 40,
        "division_type": "City",
        "province_code": 4,
        "latitude": 22.6657612,
        "longitude": 106.2588307
      },
      {
        "name": "Bao Lam",
        "code": 42,
        "division_type": "District",
        "province_code": 4,
        "latitude": 22.876005749999997,
        "longitude": 105.46837084050352
      },
      {
        "name": "Bao Lac",
        "code": 43,
        "division_type": "District",
        "province_code": 4,
        "latitude": 22.8746728,
        "longitude": 105.75083174079195
      },
      {
        "name": "Ha Quang",
        "code": 45,
        "division_type": "District",
        "province_code": 4,
        "latitude": 22.8420028,
        "longitude": 105.95487237053942
      },
      {
        "name": "Trung Khanh",
        "code": 47,
        "division_type": "District",
        "province_code": 4,
        "latitude": 22.8263904,
        "longitude": 106.46093906329244
      },
      {
        "name": "Ha Lang",
        "code": 48,
        "division_type": "District",
        "province_code": 4,
        "latitude": 22.7125811,
        "longitude": 106.663947376492
      },
      {
        "name": "Quang Hoa",
        "code": 49,
        "division_type": "District",
        "province_code": 4,
        "latitude": 22.623941600000002,
        "longitude": 106.47900902575776
      },
      {
        "name": "Hoa An",
        "code": 51,
        "division_type": "District",
        "province_code": 4,
        "latitude": 22.68792585,
        "longitude": 106.30639535789939
      },
      {
        "name": "Nguyen Binh",
        "code": 52,
        "division_type": "District",
        "province_code": 4,
        "latitude": 22.648736999999997,
        "longitude": 105.9379062357025
      },
      {
        "name": "Thach An",
        "code": 53,
        "division_type": "District",
        "province_code": 4,
        "latitude": 22.480930700000002,
        "longitude": 106.32169821921431
      }
    ]
  },
  {
    "name": "Bac Kan",
    "code": 6,
    "division_type": "Province",
    "districts": [
      {
        "name": "Bac Kan",
        "code": 58,
        "division_type": "City",
        "province_code": 6,
        "latitude": 22.1494915,
        "longitude": 105.837248
      },
      {
        "name": "Pac Nam",
        "code": 60,
        "division_type": "District",
        "province_code": 6,
        "latitude": 22.6105131,
        "longitude": 105.64470999536512
      },
      {
        "name": "Ba Be",
        "code": 61,
        "division_type": "District",
        "province_code": 6,
        "latitude": 22.4107026,
        "longitude": 105.722867615312
      },
      {
        "name": "Ngan Son",
        "code": 62,
        "division_type": "District",
        "province_code": 6,
        "latitude": 22.43076375,
        "longitude": 105.98546513057482
      },
      {
        "name": "Bach Thong",
        "code": 63,
        "division_type": "District",
        "province_code": 6,
        "latitude": 22.20210065,
        "longitude": 105.9357949031498
      },
      {
        "name": "Cho Don",
        "code": 64,
        "division_type": "District",
        "province_code": 6,
        "latitude": 22.18756805,
        "longitude": 105.57468620828968
      },
      {
        "name": "Cho Moi",
        "code": 65,
        "division_type": "District",
        "province_code": 6,
        "latitude": 21.96519485,
        "longitude": 105.87654689505666
      },
      {
        "name": "Na Ri",
        "code": 66,
        "division_type": "District",
        "province_code": 6,
        "latitude": 22.162882449999998,
        "longitude": 106.11203860923689
      }
    ]
  },
  {
    "name": "Tuyen Quang",
    "code": 8,
    "division_type": "Province",
    "districts": [
      {
        "name": "Tuyen Quang",
        "code": 70,
        "division_type": "City",
        "province_code": 8,
        "latitude": 21.7879695,
        "longitude": 105.217387
      },
      {
        "name": "Lam Binh",
        "code": 71,
        "division_type": "District",
        "province_code": 8,
        "latitude": 22.47717015,
        "longitude": 105.2500563279977
      },
      {
        "name": "Na Hang",
        "code": 72,
        "division_type": "District",
        "province_code": 8,
        "latitude": 22.44809945,
        "longitude": 105.47132197668026
      },
      {
        "name": "Chiem Hoa",
        "code": 73,
        "division_type": "District",
        "province_code": 8,
        "latitude": 22.14925105,
        "longitude": 105.30636016699103
      },
      {
        "name": "Ham Yen",
        "code": 74,
        "division_type": "District",
        "province_code": 8,
        "latitude": 22.09549305,
        "longitude": 105.0112213842072
      },
      {
        "name": "Yen Son",
        "code": 75,
        "division_type": "District",
        "province_code": 8,
        "latitude": 21.86403755,
        "longitude": 105.37115790677196
      },
      {
        "name": "Son Duong",
        "code": 76,
        "division_type": "District",
        "province_code": 8,
        "latitude": 21.672077199999997,
        "longitude": 105.3608732408226
      }
    ]
  },
  {
    "name": "Lao Cai",
    "code": 10,
    "division_type": "Province",
    "districts": [
      {
        "name": "Lao Cai",
        "code": 80,
        "division_type": "City",
        "province_code": 10,
        "latitude": 22.4997452,
        "longitude": 103.9656924
      },
      {
        "name": "Bat Xat",
        "code": 82,
        "division_type": "District",
        "province_code": 10,
        "latitude": 22.59698695,
        "longitude": 103.68841519489202
      },
      {
        "name": "Muong Khuong",
        "code": 83,
        "division_type": "District",
        "province_code": 10,
        "latitude": 22.685684000000002,
        "longitude": 104.10301604641003
      },
      {
        "name": "Si Ma Cai",
        "code": 84,
        "division_type": "District",
        "province_code": 10,
        "latitude": 22.662294199999998,
        "longitude": 104.27281354969163
      },
      {
        "name": "Bac Ha",
        "code": 85,
        "division_type": "District",
        "province_code": 10,
        "latitude": 22.5023175,
        "longitude": 104.30679141685135
      },
      {
        "name": "Bao Thang",
        "code": 86,
        "division_type": "District",
        "province_code": 10,
        "latitude": 22.378853,
        "longitude": 104.17217418962038
      },
      {
        "name": "Bao Yen",
        "code": 87,
        "division_type": "District",
        "province_code": 10,
        "latitude": 22.294473,
        "longitude": 104.41798633583858
      },
      {
        "name": "Sa Pa",
        "code": 88,
        "division_type": "District",
        "province_code": 10,
        "latitude": 22.3359668,
        "longitude": 103.8426575
      },
      {
        "name": "Van Ban",
        "code": 89,
        "division_type": "District",
        "province_code": 10,
        "latitude": 22.0643428,
        "longitude": 104.16914052211969
      }
    ]
  },
  {
    "name": "Dien Bien",
    "code": 11,
    "division_type": "Province",
    "districts": [
      {
        "name": "Dien Bien Phu",
        "code": 94,
        "division_type": "City",
        "province_code": 11,
        "latitude": 21.3874893,
        "longitude": 103.0185
      },
      {
        "name": "Muong Lay",
        "code": 95,
        "division_type": "District",
        "province_code": 11,
        "latitude": 22.0484698,
        "longitude": 103.1590651
      },
      {
        "name": "Muong Nhe",
        "code": 96,
        "division_type": "District",
        "province_code": 11,
        "latitude": 22.26420765,
        "longitude": 102.3731569116553
      },
      {
        "name": "Muong Cha",
        "code": 97,
        "division_type": "District",
        "province_code": 11,
        "latitude": 21.8272713,
        "longitude": 103.1428346145048
      },
      {
        "name": "Tua Chua",
        "code": 98,
        "division_type": "District",
        "province_code": 11,
        "latitude": 21.9709478,
        "longitude": 103.37740596517153
      },
      {
        "name": "Tuan Giao",
        "code": 99,
        "division_type": "District",
        "province_code": 11,
        "latitude": 21.6456592,
        "longitude": 103.37118850377689
      },
      {
        "name": "Dien Bien",
        "code": 100,
        "division_type": "District",
        "province_code": 11,
        "latitude": 21.255160850000003,
        "longitude": 102.99158304282933
      },
      {
        "name": "Dien Bien Dong",
        "code": 101,
        "division_type": "District",
        "province_code": 11,
        "latitude": 21.23398865,
        "longitude": 103.2629886910342
      },
      {
        "name": "Muong ang",
        "code": 102,
        "division_type": "District",
        "province_code": 11,
        "latitude": 21.526797799999997,
        "longitude": 103.25949991631711
      },
      {
        "name": "Nam Po",
        "code": 103,
        "division_type": "District",
        "province_code": 11,
        "latitude": 21.88501385,
        "longitude": 102.80759165422444
      }
    ]
  },
  {
    "name": "Lai Chau",
    "code": 12,
    "division_type": "Province",
    "districts": [
      {
        "name": "Lai Chau",
        "code": 105,
        "division_type": "City",
        "province_code": 12,
        "latitude": 22.3996612,
        "longitude": 103.4516882
      },
      {
        "name": "Tam Duong",
        "code": 106,
        "division_type": "District",
        "province_code": 12,
        "latitude": 22.33026035,
        "longitude": 103.61055138332335
      },
      {
        "name": "Muong Te",
        "code": 107,
        "division_type": "District",
        "province_code": 12,
        "latitude": 22.3829,
        "longitude": 102.814
      },
      {
        "name": "Sin Ho",
        "code": 108,
        "division_type": "District",
        "province_code": 12,
        "latitude": 22.25057715,
        "longitude": 103.35271392142076
      },
      {
        "name": "Phong Tho",
        "code": 109,
        "division_type": "District",
        "province_code": 12,
        "latitude": 22.614415700000002,
        "longitude": 103.33258751505245
      },
      {
        "name": "Than Uyen",
        "code": 110,
        "division_type": "District",
        "province_code": 12,
        "latitude": 21.8838348,
        "longitude": 103.80168115326606
      },
      {
        "name": "Tan Uyen",
        "code": 111,
        "division_type": "District",
        "province_code": 12,
        "latitude": 22.12601495,
        "longitude": 103.74486211042768
      },
      {
        "name": "Nam Nhun",
        "code": 112,
        "division_type": "District",
        "province_code": 12,
        "latitude": 22.255682550000003,
        "longitude": 103.03090269938167
      }
    ]
  },
  {
    "name": "Son La",
    "code": 14,
    "division_type": "Province",
    "districts": [
      {
        "name": "Son La",
        "code": 116,
        "division_type": "City",
        "province_code": 14,
        "latitude": 21.3274048,
        "longitude": 103.9151701
      },
      {
        "name": "Quynh Nhai",
        "code": 118,
        "division_type": "District",
        "province_code": 14,
        "latitude": 21.776997899999998,
        "longitude": 103.65989364112426
      },
      {
        "name": "Thuan Chau",
        "code": 119,
        "division_type": "District",
        "province_code": 14,
        "latitude": 21.41564915,
        "longitude": 103.58182067790997
      },
      {
        "name": "Muong La",
        "code": 120,
        "division_type": "District",
        "province_code": 14,
        "latitude": 21.52703995,
        "longitude": 104.1116189369555
      },
      {
        "name": "Bac Yen",
        "code": 121,
        "division_type": "District",
        "province_code": 14,
        "latitude": 21.2224042,
        "longitude": 104.38660816122893
      },
      {
        "name": "Phu Yen",
        "code": 122,
        "division_type": "District",
        "province_code": 14,
        "latitude": 21.2249798,
        "longitude": 104.67044491845093
      },
      {
        "name": "Moc Chau",
        "code": 123,
        "division_type": "District",
        "province_code": 14,
        "latitude": 20.87105085,
        "longitude": 104.62917893497627
      },
      {
        "name": "Yen Chau",
        "code": 124,
        "division_type": "District",
        "province_code": 14,
        "latitude": 20.991933500000002,
        "longitude": 104.33219199697885
      },
      {
        "name": "Mai Son",
        "code": 125,
        "division_type": "District",
        "province_code": 14,
        "latitude": 21.168582999999998,
        "longitude": 103.97103037410544
      },
      {
        "name": "Song Ma",
        "code": 126,
        "division_type": "District",
        "province_code": 14,
        "latitude": 21.1017179,
        "longitude": 103.59767000728036
      },
      {
        "name": "Sop Cop",
        "code": 127,
        "division_type": "District",
        "province_code": 14,
        "latitude": 20.9273119,
        "longitude": 103.6157587
      },
      {
        "name": "Van Ho",
        "code": 128,
        "division_type": "District",
        "province_code": 14,
        "latitude": 20.80959885,
        "longitude": 104.87323503174335
      }
    ]
  },
  {
    "name": "Yen Bai",
    "code": 15,
    "division_type": "Province",
    "districts": [
      {
        "name": "Yen Bai",
        "code": 132,
        "division_type": "City",
        "province_code": 15,
        "latitude": 21.69611,
        "longitude": 104.8752392
      },
      {
        "name": "Nghia Lo",
        "code": 133,
        "division_type": "District",
        "province_code": 15,
        "latitude": 21.6064201,
        "longitude": 104.5036951
      },
      {
        "name": "Luc Yen",
        "code": 135,
        "division_type": "District",
        "province_code": 15,
        "latitude": 22.1112389,
        "longitude": 104.72064323659544
      },
      {
        "name": "Van Yen",
        "code": 136,
        "division_type": "District",
        "province_code": 15,
        "latitude": 21.931317999999997,
        "longitude": 104.57883597979314
      },
      {
        "name": "Mu Cang Chai",
        "code": 137,
        "division_type": "District",
        "province_code": 15,
        "latitude": 21.8046757,
        "longitude": 104.10644914098934
      },
      {
        "name": "Tran Yen",
        "code": 138,
        "division_type": "District",
        "province_code": 15,
        "latitude": 21.704917000000002,
        "longitude": 104.75562249114842
      },
      {
        "name": "Tram Tau",
        "code": 139,
        "division_type": "District",
        "province_code": 15,
        "latitude": 21.51033155,
        "longitude": 104.4713873917611
      },
      {
        "name": "Van Chan",
        "code": 140,
        "division_type": "District",
        "province_code": 15,
        "latitude": 21.5695739,
        "longitude": 104.61828269296876
      },
      {
        "name": "Yen Binh",
        "code": 141,
        "division_type": "District",
        "province_code": 15,
        "latitude": 21.85933665,
        "longitude": 104.93652707657826
      }
    ]
  },
  {
    "name": "Hoa Binh",
    "code": 17,
    "division_type": "Province",
    "districts": [
      {
        "name": "Hoa Binh",
        "code": 148,
        "division_type": "City",
        "province_code": 17,
        "latitude": 20.8130014,
        "longitude": 105.3452974
      },
      {
        "name": "Da Bac",
        "code": 150,
        "division_type": "District",
        "province_code": 17,
        "latitude": 20.93152525,
        "longitude": 105.06792968281272
      },
      {
        "name": "Luong Son",
        "code": 152,
        "division_type": "District",
        "province_code": 17,
        "latitude": 20.78145465,
        "longitude": 105.60248177074686
      },
      {
        "name": "Kim Boi",
        "code": 153,
        "division_type": "District",
        "province_code": 17,
        "latitude": 20.675926,
        "longitude": 105.5140030747036
      },
      {
        "name": "Cao Phong",
        "code": 154,
        "division_type": "District",
        "province_code": 17,
        "latitude": 20.6882915,
        "longitude": 105.33832039321926
      },
      {
        "name": "Tan Lac",
        "code": 155,
        "division_type": "District",
        "province_code": 17,
        "latitude": 20.609234,
        "longitude": 105.22816457383709
      },
      {
        "name": "Mai Chau",
        "code": 156,
        "division_type": "District",
        "province_code": 17,
        "latitude": 20.71664475,
        "longitude": 104.97936963336959
      },
      {
        "name": "Lac Son",
        "code": 157,
        "division_type": "District",
        "province_code": 17,
        "latitude": 20.498455,
        "longitude": 105.43501003153847
      },
      {
        "name": "Yen Thuy",
        "code": 158,
        "division_type": "District",
        "province_code": 17,
        "latitude": 20.427393000000002,
        "longitude": 105.63056734764356
      },
      {
        "name": "Lac Thuy",
        "code": 159,
        "division_type": "District",
        "province_code": 17,
        "latitude": 20.4955801,
        "longitude": 105.74945849409471
      }
    ]
  },
  {
    "name": "Thai Nguyen",
    "code": 19,
    "division_type": "Province",
    "districts": [
      {
        "name": "Thai Nguyen",
        "code": 164,
        "division_type": "City",
        "province_code": 19,
        "latitude": 21.592477,
        "longitude": 105.8435398
      },
      {
        "name": "Song Cong",
        "code": 165,
        "division_type": "City",
        "province_code": 19,
        "latitude": 21.4734139,
        "longitude": 105.8424243
      },
      {
        "name": "Dinh Hoa",
        "code": 167,
        "division_type": "District",
        "province_code": 19,
        "latitude": 21.89639195,
        "longitude": 105.62804920059747
      },
      {
        "name": "Phu Luong",
        "code": 168,
        "division_type": "District",
        "province_code": 19,
        "latitude": 21.769590700000002,
        "longitude": 105.71429477766767
      },
      {
        "name": "Dong Hy",
        "code": 169,
        "division_type": "District",
        "province_code": 19,
        "latitude": 21.6850346,
        "longitude": 105.89615713883906
      },
      {
        "name": "Vo Nhai",
        "code": 170,
        "division_type": "District",
        "province_code": 19,
        "latitude": 21.785756650000003,
        "longitude": 105.98447120778604
      },
      {
        "name": "Dai Tu",
        "code": 171,
        "division_type": "District",
        "province_code": 19,
        "latitude": 21.6040279,
        "longitude": 105.61196429064387
      },
      {
        "name": "Pho Yen",
        "code": 172,
        "division_type": "City",
        "province_code": 19,
        "latitude": 21.4140993,
        "longitude": 105.8725311
      },
      {
        "name": "Phu Binh",
        "code": 173,
        "division_type": "District",
        "province_code": 19,
        "latitude": 21.492260700000003,
        "longitude": 105.9615781522054
      }
    ]
  },
  {
    "name": "Lang Son",
    "code": 20,
    "division_type": "Province",
    "districts": [
      {
        "name": "Lang Son",
        "code": 178,
        "division_type": "City",
        "province_code": 20,
        "latitude": 21.8528759,
        "longitude": 106.7597458
      },
      {
        "name": "Trang Dinh",
        "code": 180,
        "division_type": "District",
        "province_code": 20,
        "latitude": 22.3140466,
        "longitude": 106.431038
      },
      {
        "name": "Binh Gia",
        "code": 181,
        "division_type": "District",
        "province_code": 20,
        "latitude": 22.0584826,
        "longitude": 106.2786565
      },
      {
        "name": "Van Lang",
        "code": 182,
        "division_type": "District",
        "province_code": 20,
        "latitude": 22.0483039,
        "longitude": 106.5998261
      },
      {
        "name": "Cao Loc",
        "code": 183,
        "division_type": "District",
        "province_code": 20,
        "latitude": 21.884699599999998,
        "longitude": 106.9078777030075
      },
      {
        "name": "Van Quan",
        "code": 184,
        "division_type": "District",
        "province_code": 20,
        "latitude": 21.850786499999998,
        "longitude": 106.55998350234555
      },
      {
        "name": "Bac Son",
        "code": 185,
        "division_type": "District",
        "province_code": 20,
        "latitude": 21.8145798,
        "longitude": 106.25099864741418
      },
      {
        "name": "Huu Lung",
        "code": 186,
        "division_type": "District",
        "province_code": 20,
        "latitude": 21.574526499999997,
        "longitude": 106.30657575285497
      },
      {
        "name": "Chi Lang",
        "code": 187,
        "division_type": "District",
        "province_code": 20,
        "latitude": 21.66646795,
        "longitude": 106.59323985006756
      },
      {
        "name": "Loc Binh",
        "code": 188,
        "division_type": "District",
        "province_code": 20,
        "latitude": 21.66952595,
        "longitude": 106.91183779286854
      },
      {
        "name": "Dinh Lap",
        "code": 189,
        "division_type": "District",
        "province_code": 20,
        "latitude": 21.533773949999997,
        "longitude": 107.09079826601865
      }
    ]
  },
  {
    "name": "Quang Ninh",
    "code": 22,
    "division_type": "Province",
    "districts": [
      {
        "name": "Ha Long",
        "code": 193,
        "division_type": "City",
        "province_code": 22,
        "latitude": 20.9528365,
        "longitude": 107.0800003
      },
      {
        "name": "Mong Cai",
        "code": 194,
        "division_type": "City",
        "province_code": 22,
        "latitude": 21.5290279,
        "longitude": 107.9691594
      },
      {
        "name": "Cam Pha",
        "code": 195,
        "division_type": "City",
        "province_code": 22,
        "latitude": 21.004432,
        "longitude": 107.278029
      },
      {
        "name": "Uong Bi",
        "code": 196,
        "division_type": "City",
        "province_code": 22,
        "latitude": 21.0414692,
        "longitude": 106.7740261
      },
      {
        "name": "Binh Lieu",
        "code": 198,
        "division_type": "District",
        "province_code": 22,
        "latitude": 21.55009455,
        "longitude": 107.44023870266739
      },
      {
        "name": "Tien Yen",
        "code": 199,
        "division_type": "District",
        "province_code": 22,
        "latitude": 21.37342545,
        "longitude": 107.38202727649063
      },
      {
        "name": "Dam Ha",
        "code": 200,
        "division_type": "District",
        "province_code": 22,
        "latitude": 21.35619175,
        "longitude": 107.59805574155416
      },
      {
        "name": "Hai Ha",
        "code": 201,
        "division_type": "District",
        "province_code": 22,
        "latitude": 20.9430069,
        "longitude": 107.1081635
      },
      {
        "name": "Ba Che",
        "code": 202,
        "division_type": "District",
        "province_code": 22,
        "latitude": 21.2593235,
        "longitude": 107.16438586465571
      },
      {
        "name": "Van Don",
        "code": 203,
        "division_type": "District",
        "province_code": 22,
        "latitude": 20.981892449999997,
        "longitude": 107.50001837522814
      },
      {
        "name": "Dong Trieu",
        "code": 205,
        "division_type": "District",
        "province_code": 22,
        "latitude": 21.0837903,
        "longitude": 106.5133609
      },
      {
        "name": "Quang Yen",
        "code": 206,
        "division_type": "District",
        "province_code": 22,
        "latitude": 20.9249192,
        "longitude": 106.85651779735846
      },
      {
        "name": "Co To",
        "code": 207,
        "division_type": "District",
        "province_code": 22,
        "latitude": 20.9702965,
        "longitude": 107.7638383
      }
    ]
  },
  {
    "name": "Bac Giang",
    "code": 24,
    "division_type": "Province",
    "districts": [
      {
        "name": "Bac Giang",
        "code": 213,
        "division_type": "City",
        "province_code": 24,
        "latitude": 21.2795479,
        "longitude": 106.2038074
      },
      {
        "name": "Yen The",
        "code": 215,
        "division_type": "District",
        "province_code": 24,
        "latitude": 21.52444285,
        "longitude": 106.10659369977785
      },
      {
        "name": "Tan Yen",
        "code": 216,
        "division_type": "District",
        "province_code": 24,
        "latitude": 21.387069,
        "longitude": 106.129314
      },
      {
        "name": "Lang Giang",
        "code": 217,
        "division_type": "District",
        "province_code": 24,
        "latitude": 21.367404999999998,
        "longitude": 106.24753101320522
      },
      {
        "name": "Luc Nam",
        "code": 218,
        "division_type": "District",
        "province_code": 24,
        "latitude": 21.304446249999998,
        "longitude": 106.40238937066697
      },
      {
        "name": "Luc Ngan",
        "code": 219,
        "division_type": "District",
        "province_code": 24,
        "latitude": 21.4369085,
        "longitude": 106.62252810075765
      },
      {
        "name": "Son Dong",
        "code": 220,
        "division_type": "District",
        "province_code": 24,
        "latitude": 21.327600500000003,
        "longitude": 106.89994120997386
      },
      {
        "name": "Yen Dung",
        "code": 221,
        "division_type": "District",
        "province_code": 24,
        "latitude": 21.20490835,
        "longitude": 106.24287470550964
      },
      {
        "name": "Viet Yen",
        "code": 222,
        "division_type": "District",
        "province_code": 24,
        "latitude": 21.27026545,
        "longitude": 106.08614160365526
      },
      {
        "name": "Hiep Hoa",
        "code": 223,
        "division_type": "District",
        "province_code": 24,
        "latitude": 21.33028415,
        "longitude": 105.95727248053711
      }
    ]
  },
  {
    "name": "Phu Tho",
    "code": 25,
    "division_type": "Province",
    "districts": [
      {
        "name": "Viet Tri",
        "code": 227,
        "division_type": "City",
        "province_code": 25,
        "latitude": 21.3178347,
        "longitude": 105.4386546
      },
      {
        "name": "Phu Tho",
        "code": 228,
        "division_type": "District",
        "province_code": 25,
        "latitude": 21.4000047,
        "longitude": 105.2238899
      },
      {
        "name": "Doan Hung",
        "code": 230,
        "division_type": "District",
        "province_code": 25,
        "latitude": 21.6438394,
        "longitude": 105.1801634
      },
      {
        "name": "Ha Hoa",
        "code": 231,
        "division_type": "District",
        "province_code": 25,
        "latitude": 21.587605500000002,
        "longitude": 104.99851429279514
      },
      {
        "name": "Thanh Ba",
        "code": 232,
        "division_type": "District",
        "province_code": 25,
        "latitude": 21.45070665,
        "longitude": 105.16626116492901
      },
      {
        "name": "Phu Ninh",
        "code": 233,
        "division_type": "District",
        "province_code": 25,
        "latitude": 21.4147048,
        "longitude": 105.36953
      },
      {
        "name": "Yen Lap",
        "code": 234,
        "division_type": "District",
        "province_code": 25,
        "latitude": 21.3722635,
        "longitude": 104.9760095191688
      },
      {
        "name": "Cam Khe",
        "code": 235,
        "division_type": "District",
        "province_code": 25,
        "latitude": 21.384698399999998,
        "longitude": 105.105453181571
      },
      {
        "name": "Tam Nong",
        "code": 236,
        "division_type": "District",
        "province_code": 25,
        "latitude": 21.307453000000002,
        "longitude": 105.23023958738162
      },
      {
        "name": "Lam Thao",
        "code": 237,
        "division_type": "District",
        "province_code": 25,
        "latitude": 21.326521800000002,
        "longitude": 105.28945037700699
      },
      {
        "name": "Thanh Son",
        "code": 238,
        "division_type": "District",
        "province_code": 25,
        "latitude": 21.087268299999998,
        "longitude": 105.19657036859971
      },
      {
        "name": "Thanh Thuy",
        "code": 239,
        "division_type": "District",
        "province_code": 25,
        "latitude": 21.123781,
        "longitude": 105.28785795717657
      },
      {
        "name": "Tan Son",
        "code": 240,
        "division_type": "District",
        "province_code": 25,
        "latitude": 21.188681850000002,
        "longitude": 104.98305093943205
      }
    ]
  },
  {
    "name": "Vinh Phuc",
    "code": 26,
    "division_type": "Province",
    "districts": [
      {
        "name": "Vinh Yen",
        "code": 243,
        "division_type": "City",
        "province_code": 26,
        "latitude": 21.3088479,
        "longitude": 105.5916322
      },
      {
        "name": "Phuc Yen",
        "code": 244,
        "division_type": "City",
        "province_code": 26,
        "latitude": 21.2332705,
        "longitude": 105.7035505
      },
      {
        "name": "Lap Thach",
        "code": 246,
        "division_type": "District",
        "province_code": 26,
        "latitude": 21.4130068,
        "longitude": 105.4643726
      },
      {
        "name": "Tam Duong",
        "code": 247,
        "division_type": "District",
        "province_code": 26,
        "latitude": 21.360439200000002,
        "longitude": 105.56362559272
      },
      {
        "name": "Tam Dao",
        "code": 248,
        "division_type": "District",
        "province_code": 26,
        "latitude": 21.4559982,
        "longitude": 105.644466
      },
      {
        "name": "Binh Xuyen",
        "code": 249,
        "division_type": "District",
        "province_code": 26,
        "latitude": 21.2808984,
        "longitude": 105.6716036
      },
      {
        "name": "Yen Lac",
        "code": 251,
        "division_type": "District",
        "province_code": 26,
        "latitude": 21.2190517,
        "longitude": 105.5794739
      },
      {
        "name": "Vinh Tuong",
        "code": 252,
        "division_type": "District",
        "province_code": 26,
        "latitude": 21.2487718,
        "longitude": 105.49210963379441
      },
      {
        "name": "Song Lo",
        "code": 253,
        "division_type": "District",
        "province_code": 26,
        "latitude": 21.5292124,
        "longitude": 105.2972945
      }
    ]
  },
  {
    "name": "Bac Ninh",
    "code": 27,
    "division_type": "Province",
    "districts": [
      {
        "name": "Bac Ninh",
        "code": 256,
        "division_type": "City",
        "province_code": 27,
        "latitude": 21.1781515,
        "longitude": 106.0710078
      },
      {
        "name": "Yen Phong",
        "code": 258,
        "division_type": "District",
        "province_code": 27,
        "latitude": 21.2100296,
        "longitude": 105.97596819463995
      },
      {
        "name": "Que Vo",
        "code": 259,
        "division_type": "District",
        "province_code": 27,
        "latitude": 21.14473675,
        "longitude": 106.19972677152838
      },
      {
        "name": "Tien Du",
        "code": 260,
        "division_type": "District",
        "province_code": 27,
        "latitude": 21.1260431,
        "longitude": 106.02902840335202
      },
      {
        "name": "Tu Son",
        "code": 261,
        "division_type": "City",
        "province_code": 27,
        "latitude": 21.113309,
        "longitude": 105.9568611
      },
      {
        "name": "Thuan Thanh",
        "code": 262,
        "division_type": "District",
        "province_code": 27,
        "latitude": 21.0384562,
        "longitude": 106.07811573738266
      },
      {
        "name": "Gia Binh",
        "code": 263,
        "division_type": "District",
        "province_code": 27,
        "latitude": 21.0638566,
        "longitude": 106.20034615342385
      },
      {
        "name": "Luong Tai",
        "code": 264,
        "division_type": "District",
        "province_code": 27,
        "latitude": 21.02481855,
        "longitude": 106.24108574105982
      }
    ]
  },
  {
    "name": "Hai Duong",
    "code": 30,
    "division_type": "Province",
    "districts": [
      {
        "name": "Hai Duong",
        "code": 288,
        "division_type": "City",
        "province_code": 30,
        "latitude": 20.9430878,
        "longitude": 106.3225388
      },
      {
        "name": "Chi Linh",
        "code": 290,
        "division_type": "City",
        "province_code": 30,
        "latitude": 21.1074209,
        "longitude": 106.3873204
      },
      {
        "name": "Nam Sach",
        "code": 291,
        "division_type": "District",
        "province_code": 30,
        "latitude": 21.021640249999997,
        "longitude": 106.33553342548927
      },
      {
        "name": "Kinh Mon",
        "code": 292,
        "division_type": "District",
        "province_code": 30,
        "latitude": 20.9999626,
        "longitude": 106.51302527084664
      },
      {
        "name": "Kim Thanh",
        "code": 293,
        "division_type": "District",
        "province_code": 30,
        "latitude": 20.927149749999998,
        "longitude": 106.51089146358728
      },
      {
        "name": "Thanh Ha",
        "code": 294,
        "division_type": "District",
        "province_code": 30,
        "latitude": 20.8974948,
        "longitude": 106.4274466
      },
      {
        "name": "Cam Giang",
        "code": 295,
        "division_type": "District",
        "province_code": 30,
        "latitude": 20.9512277,
        "longitude": 106.21698098447946
      },
      {
        "name": "Binh Giang",
        "code": 296,
        "division_type": "District",
        "province_code": 30,
        "latitude": 20.875629500000002,
        "longitude": 106.19346351646702
      },
      {
        "name": "Gia Loc",
        "code": 297,
        "division_type": "District",
        "province_code": 30,
        "latitude": 20.8443905,
        "longitude": 106.30103708763326
      },
      {
        "name": "Tu Ky",
        "code": 298,
        "division_type": "District",
        "province_code": 30,
        "latitude": 20.8214888,
        "longitude": 106.3983485
      },
      {
        "name": "Ninh Giang",
        "code": 299,
        "division_type": "District",
        "province_code": 30,
        "latitude": 20.75314105,
        "longitude": 106.33174108024527
      },
      {
        "name": "Thanh Mien",
        "code": 300,
        "division_type": "District",
        "province_code": 30,
        "latitude": 20.76602915,
        "longitude": 106.22868145662432
      }
    ]
  },
  {
    "name": "Hai Phong",
    "code": 31,
    "division_type": "City",
    "districts": [
      {
        "name": "Hong Bang",
        "code": 303,
        "division_type": "District",
        "province_code": 31,
        "latitude": 20.8763328,
        "longitude": 106.64442867897043
      },
      {
        "name": "Ngo Quyen",
        "code": 304,
        "division_type": "District",
        "province_code": 31,
        "latitude": 20.8459596,
        "longitude": 106.7043388
      },
      {
        "name": "Le Chan",
        "code": 305,
        "division_type": "District",
        "province_code": 31,
        "latitude": 20.83556265,
        "longitude": 106.68148578171201
      },
      {
        "name": "Hai An",
        "code": 306,
        "division_type": "District",
        "province_code": 31,
        "latitude": 20.8564991,
        "longitude": 106.72519570279448
      },
      {
        "name": "Kien An",
        "code": 307,
        "division_type": "District",
        "province_code": 31,
        "latitude": 20.806616599999998,
        "longitude": 106.632475497576
      },
      {
        "name": "Do Son",
        "code": 308,
        "division_type": "District",
        "province_code": 31,
        "latitude": 20.71423625,
        "longitude": 106.75079457525689
      },
      {
        "name": "Duong Kinh",
        "code": 309,
        "division_type": "District",
        "province_code": 31,
        "latitude": 20.7745573,
        "longitude": 106.724486
      },
      {
        "name": "Thuy Nguyen",
        "code": 311,
        "division_type": "District",
        "province_code": 31,
        "latitude": 20.941078349999998,
        "longitude": 106.68503670470655
      },
      {
        "name": "An Duong",
        "code": 312,
        "division_type": "District",
        "province_code": 31,
        "latitude": 20.8666579,
        "longitude": 106.615461
      },
      {
        "name": "An Lao",
        "code": 313,
        "division_type": "District",
        "province_code": 31,
        "latitude": 20.8218074,
        "longitude": 106.5555991
      },
      {
        "name": "Kien Thuy",
        "code": 314,
        "division_type": "District",
        "province_code": 31,
        "latitude": 20.73365105,
        "longitude": 106.67151606796983
      },
      {
        "name": "Tien Lang",
        "code": 315,
        "division_type": "District",
        "province_code": 31,
        "latitude": 20.7251453,
        "longitude": 106.5540083
      },
      {
        "name": "Vinh Bao",
        "code": 316,
        "division_type": "District",
        "province_code": 31,
        "latitude": 20.6900349,
        "longitude": 106.4812832
      },
      {
        "name": "Cat Hai",
        "code": 317,
        "division_type": "District",
        "province_code": 31,
        "latitude": 20.80134795,
        "longitude": 106.86968245546102
      },
      {
        "name": "Bach Long Vi",
        "code": 318,
        "division_type": "District",
        "province_code": 31,
        "latitude": 20.1293147,
        "longitude": 107.7295067
      }
    ]
  },
  {
    "name": "Hung Yen",
    "code": 33,
    "division_type": "Province",
    "districts": [
      {
        "name": "Hung Yen",
        "code": 323,
        "division_type": "City",
        "province_code": 33,
        "latitude": 20.6568406,
        "longitude": 106.054036
      },
      {
        "name": "Van Lam",
        "code": 325,
        "division_type": "District",
        "province_code": 33,
        "latitude": 20.9726981,
        "longitude": 106.01661729935404
      },
      {
        "name": "Van Giang",
        "code": 326,
        "division_type": "District",
        "province_code": 33,
        "latitude": 20.9303345,
        "longitude": 105.96314939822031
      },
      {
        "name": "Yen My",
        "code": 327,
        "division_type": "District",
        "province_code": 33,
        "latitude": 20.894997500000002,
        "longitude": 106.0213599668703
      },
      {
        "name": "My Hao",
        "code": 328,
        "division_type": "District",
        "province_code": 33,
        "latitude": 20.9361841,
        "longitude": 106.0584514
      },
      {
        "name": "an Thi",
        "code": 329,
        "division_type": "District",
        "province_code": 33,
        "latitude": 20.812668799999997,
        "longitude": 106.09573782253199
      },
      {
        "name": "Khoai Chau",
        "code": 330,
        "division_type": "District",
        "province_code": 33,
        "latitude": 20.830855,
        "longitude": 105.97595651121978
      },
      {
        "name": "Kim Dong",
        "code": 331,
        "division_type": "District",
        "province_code": 33,
        "latitude": 20.755141950000002,
        "longitude": 106.03019090846877
      },
      {
        "name": "Tien Lu",
        "code": 332,
        "division_type": "District",
        "province_code": 33,
        "latitude": 20.681682799999997,
        "longitude": 106.14249761475986
      },
      {
        "name": "Phu Cu",
        "code": 333,
        "division_type": "District",
        "province_code": 33,
        "latitude": 20.713157250000002,
        "longitude": 106.18141954602125
      }
    ]
  },
  {
    "name": "Thai Binh",
    "code": 34,
    "division_type": "Province",
    "districts": [
      {
        "name": "Thai Binh",
        "code": 336,
        "division_type": "City",
        "province_code": 34,
        "latitude": 20.449288,
        "longitude": 106.3424893
      },
      {
        "name": "Quynh Phu",
        "code": 338,
        "division_type": "District",
        "province_code": 34,
        "latitude": 20.647978600000002,
        "longitude": 106.3630021418404
      },
      {
        "name": "Hung Ha",
        "code": 339,
        "division_type": "District",
        "province_code": 34,
        "latitude": 20.5934597,
        "longitude": 106.21843677154311
      },
      {
        "name": "Dong Hung",
        "code": 340,
        "division_type": "District",
        "province_code": 34,
        "latitude": 20.548813199999998,
        "longitude": 106.33975983796992
      },
      {
        "name": "Thai Thuy",
        "code": 341,
        "division_type": "District",
        "province_code": 34,
        "latitude": 20.54123525,
        "longitude": 106.51081932008964
      },
      {
        "name": "Tien Hai",
        "code": 342,
        "division_type": "District",
        "province_code": 34,
        "latitude": 20.3768181,
        "longitude": 106.52240546449468
      },
      {
        "name": "Kien Xuong",
        "code": 343,
        "division_type": "District",
        "province_code": 34,
        "latitude": 20.3967441,
        "longitude": 106.42057075471456
      },
      {
        "name": "Vu Thu",
        "code": 344,
        "division_type": "District",
        "province_code": 34,
        "latitude": 20.4256828,
        "longitude": 106.26253362431754
      }
    ]
  },
  {
    "name": "Ha Nam",
    "code": 35,
    "division_type": "Province",
    "districts": [
      {
        "name": "Phu Ly",
        "code": 347,
        "division_type": "City",
        "province_code": 35,
        "latitude": 20.5447207,
        "longitude": 105.915517
      },
      {
        "name": "Duy Tien",
        "code": 349,
        "division_type": "District",
        "province_code": 35,
        "latitude": 20.630617649999998,
        "longitude": 105.97138916063906
      },
      {
        "name": "Kim Bang",
        "code": 350,
        "division_type": "District",
        "province_code": 35,
        "latitude": 20.57129535,
        "longitude": 105.84344789008205
      },
      {
        "name": "Thanh Liem",
        "code": 351,
        "division_type": "District",
        "province_code": 35,
        "latitude": 20.44534775,
        "longitude": 105.92103804498532
      },
      {
        "name": "Binh Luc",
        "code": 352,
        "division_type": "District",
        "province_code": 35,
        "latitude": 20.5002363,
        "longitude": 106.0508339
      },
      {
        "name": "Ly Nhan",
        "code": 353,
        "division_type": "District",
        "province_code": 35,
        "latitude": 20.54725985,
        "longitude": 106.0996179984094
      }
    ]
  },
  {
    "name": "Nam Dinh",
    "code": 36,
    "division_type": "Province",
    "districts": [
      {
        "name": "Nam Dinh",
        "code": 356,
        "division_type": "City",
        "province_code": 36,
        "latitude": 20.4232641,
        "longitude": 106.1688515
      },
      {
        "name": "My Loc",
        "code": 358,
        "division_type": "District",
        "province_code": 36,
        "latitude": 20.454958599999998,
        "longitude": 106.11072485406683
      },
      {
        "name": "Vu Ban",
        "code": 359,
        "division_type": "District",
        "province_code": 36,
        "latitude": 20.38293865,
        "longitude": 106.09987183473487
      },
      {
        "name": "Y Yen",
        "code": 360,
        "division_type": "District",
        "province_code": 36,
        "latitude": 20.32892715,
        "longitude": 105.99704174849221
      },
      {
        "name": "Nghia Hung",
        "code": 361,
        "division_type": "District",
        "province_code": 36,
        "latitude": 20.1005413,
        "longitude": 106.17526822430429
      },
      {
        "name": "Nam Truc",
        "code": 362,
        "division_type": "District",
        "province_code": 36,
        "latitude": 20.334464150000002,
        "longitude": 106.21280624561578
      },
      {
        "name": "Truc Ninh",
        "code": 363,
        "division_type": "District",
        "province_code": 36,
        "latitude": 20.243564749999997,
        "longitude": 106.21492058780298
      },
      {
        "name": "Xuan Truong",
        "code": 364,
        "division_type": "District",
        "province_code": 36,
        "latitude": 20.2972793,
        "longitude": 106.37971276018536
      },
      {
        "name": "Giao Thuy",
        "code": 365,
        "division_type": "District",
        "province_code": 36,
        "latitude": 20.2475862,
        "longitude": 106.45734885249485
      },
      {
        "name": "Hai Hau",
        "code": 366,
        "division_type": "District",
        "province_code": 36,
        "latitude": 20.1228538,
        "longitude": 106.24849271859472
      }
    ]
  },
  {
    "name": "Ninh Binh",
    "code": 37,
    "division_type": "Province",
    "districts": [
      {
        "name": "Ninh Binh",
        "code": 369,
        "division_type": "City",
        "province_code": 37,
        "latitude": 20.2545421,
        "longitude": 105.9764854
      },
      {
        "name": "Tam Diep",
        "code": 370,
        "division_type": "City",
        "province_code": 37,
        "latitude": 20.160501699999998,
        "longitude": 105.87570425998786
      },
      {
        "name": "Nho Quan",
        "code": 372,
        "division_type": "District",
        "province_code": 37,
        "latitude": 20.31154495,
        "longitude": 105.74858793941853
      },
      {
        "name": "Gia Vien",
        "code": 373,
        "division_type": "District",
        "province_code": 37,
        "latitude": 20.3298145,
        "longitude": 105.87296756599235
      },
      {
        "name": "Hoa Lu",
        "code": 374,
        "division_type": "District",
        "province_code": 37,
        "latitude": 20.2498818,
        "longitude": 105.91648669262295
      },
      {
        "name": "Yen Khanh",
        "code": 375,
        "division_type": "District",
        "province_code": 37,
        "latitude": 20.1897243,
        "longitude": 106.09468715434625
      },
      {
        "name": "Kim Son",
        "code": 376,
        "division_type": "District",
        "province_code": 37,
        "latitude": 20.0240516,
        "longitude": 106.08794668663856
      },
      {
        "name": "Yen Mo",
        "code": 377,
        "division_type": "District",
        "province_code": 37,
        "latitude": 20.1281337,
        "longitude": 106.01227646164281
      }
    ]
  },
  {
    "name": "Thanh Hoa",
    "code": 38,
    "division_type": "Province",
    "districts": [
      {
        "name": "Thanh Hoa",
        "code": 380,
        "division_type": "City",
        "province_code": 38,
        "latitude": 19.811719,
        "longitude": 105.7745698
      },
      {
        "name": "Bim Son",
        "code": 381,
        "division_type": "District",
        "province_code": 38,
        "latitude": 20.0881155,
        "longitude": 105.88137263124904
      },
      {
        "name": "Sam Son",
        "code": 382,
        "division_type": "City",
        "province_code": 38,
        "latitude": 19.7373081,
        "longitude": 105.8933004
      },
      {
        "name": "Muong Lat",
        "code": 384,
        "division_type": "District",
        "province_code": 38,
        "latitude": 20.51085095,
        "longitude": 104.66104552123761
      },
      {
        "name": "Quan Hoa",
        "code": 385,
        "division_type": "District",
        "province_code": 38,
        "latitude": 20.486507,
        "longitude": 104.96621876237262
      },
      {
        "name": "Ba Thuoc",
        "code": 386,
        "division_type": "District",
        "province_code": 38,
        "latitude": 20.3794035,
        "longitude": 105.27657165402329
      },
      {
        "name": "Quan Son",
        "code": 387,
        "division_type": "District",
        "province_code": 38,
        "latitude": 20.2540695,
        "longitude": 104.82603973786325
      },
      {
        "name": "Lang Chanh",
        "code": 388,
        "division_type": "District",
        "province_code": 38,
        "latitude": 20.1488045,
        "longitude": 105.13717532659646
      },
      {
        "name": "Ngoc Lac",
        "code": 389,
        "division_type": "District",
        "province_code": 38,
        "latitude": 20.068114,
        "longitude": 105.38811681922738
      },
      {
        "name": "Cam Thuy",
        "code": 390,
        "division_type": "District",
        "province_code": 38,
        "latitude": 20.204455000000003,
        "longitude": 105.44603597377555
      },
      {
        "name": "Thach Thanh",
        "code": 391,
        "division_type": "District",
        "province_code": 38,
        "latitude": 20.2110359,
        "longitude": 105.63496621477333
      },
      {
        "name": "Ha Trung",
        "code": 392,
        "division_type": "District",
        "province_code": 38,
        "latitude": 20.0551795,
        "longitude": 105.8113060040203
      },
      {
        "name": "Vinh Loc",
        "code": 393,
        "division_type": "District",
        "province_code": 38,
        "latitude": 20.0408855,
        "longitude": 105.64896768729713
      },
      {
        "name": "Yen Dinh",
        "code": 394,
        "division_type": "District",
        "province_code": 38,
        "latitude": 20.00772245,
        "longitude": 105.59748730339766
      },
      {
        "name": "Tho Xuan",
        "code": 395,
        "division_type": "District",
        "province_code": 38,
        "latitude": 19.9314713,
        "longitude": 105.5201075
      },
      {
        "name": "Thuong Xuan",
        "code": 396,
        "division_type": "District",
        "province_code": 38,
        "latitude": 19.91468195,
        "longitude": 105.27222456345976
      },
      {
        "name": "Trieu Son",
        "code": 397,
        "division_type": "District",
        "province_code": 38,
        "latitude": 19.802146399999998,
        "longitude": 105.59514601007535
      },
      {
        "name": "Thieu Hoa",
        "code": 398,
        "division_type": "District",
        "province_code": 38,
        "latitude": 19.8862853,
        "longitude": 105.6800613
      },
      {
        "name": "Hoang Hoa",
        "code": 399,
        "division_type": "District",
        "province_code": 38,
        "latitude": 19.8663658,
        "longitude": 105.86603390153925
      },
      {
        "name": "Hau Loc",
        "code": 400,
        "division_type": "District",
        "province_code": 38,
        "latitude": 19.933526550000003,
        "longitude": 105.87587489869841
      },
      {
        "name": "Nga Son",
        "code": 401,
        "division_type": "District",
        "province_code": 38,
        "latitude": 20.004185900000003,
        "longitude": 105.9822497973085
      },
      {
        "name": "Nhu Xuan",
        "code": 402,
        "division_type": "District",
        "province_code": 38,
        "latitude": 19.5979665,
        "longitude": 105.38746887021276
      },
      {
        "name": "Nhu Thanh",
        "code": 403,
        "division_type": "District",
        "province_code": 38,
        "latitude": 19.6347474,
        "longitude": 105.5590684
      },
      {
        "name": "Nong Cong",
        "code": 404,
        "division_type": "District",
        "province_code": 38,
        "latitude": 19.615583450000003,
        "longitude": 105.68484311304357
      },
      {
        "name": "Dong Son",
        "code": 405,
        "division_type": "District",
        "province_code": 38,
        "latitude": 19.794562999999997,
        "longitude": 105.70216211732469
      },
      {
        "name": "Quang Xuong",
        "code": 406,
        "division_type": "District",
        "province_code": 38,
        "latitude": 19.664781599999998,
        "longitude": 105.78518008556892
      },
      {
        "name": "Nghi Son",
        "code": 407,
        "division_type": "District",
        "province_code": 38,
        "latitude": 19.4507834,
        "longitude": 105.7801293
      }
    ]
  },
  {
    "name": "Nghe An",
    "code": 40,
    "division_type": "Province",
    "districts": [
      {
        "name": "Vinh",
        "code": 412,
        "division_type": "City",
        "province_code": 40,
        "latitude": 18.6692445,
        "longitude": 105.6881594
      },
      {
        "name": "Cua Lo",
        "code": 413,
        "division_type": "District",
        "province_code": 40,
        "latitude": 18.78916075,
        "longitude": 105.72090283072222
      },
      {
        "name": "Thai Hoa",
        "code": 414,
        "division_type": "District",
        "province_code": 40,
        "latitude": 19.2949005,
        "longitude": 105.4471800839254
      },
      {
        "name": "Que Phong",
        "code": 415,
        "division_type": "District",
        "province_code": 40,
        "latitude": 19.70500475,
        "longitude": 104.84880140977381
      },
      {
        "name": "Quy Chau",
        "code": 416,
        "division_type": "District",
        "province_code": 40,
        "latitude": 19.53561835,
        "longitude": 105.13297446709093
      },
      {
        "name": "Ky Son",
        "code": 417,
        "division_type": "District",
        "province_code": 40,
        "latitude": 19.410235649999997,
        "longitude": 104.18698456526376
      },
      {
        "name": "Tuong Duong",
        "code": 418,
        "division_type": "District",
        "province_code": 40,
        "latitude": 19.320369200000002,
        "longitude": 104.62796921092348
      },
      {
        "name": "Nghia Dan",
        "code": 419,
        "division_type": "District",
        "province_code": 40,
        "latitude": 19.354525449999997,
        "longitude": 105.50936555658564
      },
      {
        "name": "Quy Hop",
        "code": 420,
        "division_type": "District",
        "province_code": 40,
        "latitude": 19.322734,
        "longitude": 105.16178413371068
      },
      {
        "name": "Quynh Luu",
        "code": 421,
        "division_type": "District",
        "province_code": 40,
        "latitude": 19.23285405,
        "longitude": 105.60004256673577
      },
      {
        "name": "Con Cuong",
        "code": 422,
        "division_type": "District",
        "province_code": 40,
        "latitude": 19.064100000000003,
        "longitude": 104.82452171205429
      },
      {
        "name": "Tan Ky",
        "code": 423,
        "division_type": "District",
        "province_code": 40,
        "latitude": 19.102774,
        "longitude": 105.22124030146261
      },
      {
        "name": "Anh Son",
        "code": 424,
        "division_type": "District",
        "province_code": 40,
        "latitude": 18.968689,
        "longitude": 105.10057946768202
      },
      {
        "name": "Dien Chau",
        "code": 425,
        "division_type": "District",
        "province_code": 40,
        "latitude": 19.021568000000002,
        "longitude": 105.57809018508287
      },
      {
        "name": "Yen Thanh",
        "code": 426,
        "division_type": "District",
        "province_code": 40,
        "latitude": 19.0232605,
        "longitude": 105.41540765835353
      },
      {
        "name": "Do Luong",
        "code": 427,
        "division_type": "District",
        "province_code": 40,
        "latitude": 18.9159875,
        "longitude": 105.31406798494636
      },
      {
        "name": "Thanh Chuong",
        "code": 428,
        "division_type": "District",
        "province_code": 40,
        "latitude": 18.735394,
        "longitude": 105.22430726291302
      },
      {
        "name": "Nghi Loc",
        "code": 429,
        "division_type": "District",
        "province_code": 40,
        "latitude": 18.7932116,
        "longitude": 105.5277696693013
      },
      {
        "name": "Nam Dan",
        "code": 430,
        "division_type": "District",
        "province_code": 40,
        "latitude": 18.67394455,
        "longitude": 105.52351162918467
      },
      {
        "name": "Hung Nguyen",
        "code": 431,
        "division_type": "District",
        "province_code": 40,
        "latitude": 18.68409995,
        "longitude": 105.62234764952535
      },
      {
        "name": "Hoang Mai",
        "code": 432,
        "division_type": "District",
        "province_code": 40,
        "latitude": 19.2684676,
        "longitude": 105.7163991
      }
    ]
  },
  {
    "name": "Ha Tinh",
    "code": 42,
    "division_type": "Province",
    "districts": [
      {
        "name": "Ha Tinh",
        "code": 436,
        "division_type": "City",
        "province_code": 42,
        "latitude": 18.0293622,
        "longitude": 106.44435899905727
      },
      {
        "name": "Hong Linh",
        "code": 437,
        "division_type": "District",
        "province_code": 42,
        "latitude": 18.5338755,
        "longitude": 105.71148245187794
      },
      {
        "name": "Huong Son",
        "code": 439,
        "division_type": "District",
        "province_code": 42,
        "latitude": 18.44563635,
        "longitude": 105.24816902214778
      },
      {
        "name": "Duc Tho",
        "code": 440,
        "division_type": "District",
        "province_code": 42,
        "latitude": 18.4886823,
        "longitude": 105.60529294514542
      },
      {
        "name": "Vu Quang",
        "code": 441,
        "division_type": "District",
        "province_code": 42,
        "latitude": 18.324144,
        "longitude": 105.45317985044929
      },
      {
        "name": "Nghi Xuan",
        "code": 442,
        "division_type": "District",
        "province_code": 42,
        "latitude": 18.644419999999997,
        "longitude": 105.75753302632616
      },
      {
        "name": "Can Loc",
        "code": 443,
        "division_type": "District",
        "province_code": 42,
        "latitude": 18.4436926,
        "longitude": 105.73145497029198
      },
      {
        "name": "Huong Khe",
        "code": 444,
        "division_type": "District",
        "province_code": 42,
        "latitude": 18.19256585,
        "longitude": 105.67922366452693
      },
      {
        "name": "Thach Ha",
        "code": 445,
        "division_type": "District",
        "province_code": 42,
        "latitude": 18.30697275,
        "longitude": 105.83052092303258
      },
      {
        "name": "Cam Xuyen",
        "code": 446,
        "division_type": "District",
        "province_code": 42,
        "latitude": 18.1901239,
        "longitude": 106.01012297452532
      },
      {
        "name": "Ky Anh",
        "code": 447,
        "division_type": "District",
        "province_code": 42,
        "latitude": 18.0665114,
        "longitude": 106.3001346
      },
      {
        "name": "Loc Ha",
        "code": 448,
        "division_type": "District",
        "province_code": 42,
        "latitude": 18.4667912,
        "longitude": 105.86786423728505
      },
      {
        "name": "Ky Anh",
        "code": 449,
        "division_type": "District",
        "province_code": 42,
        "latitude": 18.0665114,
        "longitude": 106.3001346
      }
    ]
  },
  {
    "name": "Quang Binh",
    "code": 44,
    "division_type": "Province",
    "districts": [
      {
        "name": "Dong Hoi",
        "code": 450,
        "division_type": "District",
        "province_code": 44,
        "latitude": 17.4659566,
        "longitude": 106.5984715
      },
      {
        "name": "Minh Hoa",
        "code": 452,
        "division_type": "District",
        "province_code": 44,
        "latitude": 17.734754549999998,
        "longitude": 105.92044281772877
      },
      {
        "name": "Tuyen Hoa",
        "code": 453,
        "division_type": "District",
        "province_code": 44,
        "latitude": 17.899741,
        "longitude": 106.10430650862298
      },
      {
        "name": "Quang Trach",
        "code": 454,
        "division_type": "District",
        "province_code": 44,
        "latitude": 17.87216885,
        "longitude": 106.36244821515544
      },
      {
        "name": "Bo Trach",
        "code": 455,
        "division_type": "District",
        "province_code": 44,
        "latitude": 17.48762215,
        "longitude": 106.26234533350183
      },
      {
        "name": "Quang Ninh",
        "code": 456,
        "division_type": "District",
        "province_code": 44,
        "latitude": 17.2541355,
        "longitude": 106.49382210833164
      },
      {
        "name": "Le Thuy",
        "code": 457,
        "division_type": "District",
        "province_code": 44,
        "latitude": 17.1281351,
        "longitude": 106.74434175142676
      },
      {
        "name": "Ba Don",
        "code": 458,
        "division_type": "District",
        "province_code": 44,
        "latitude": 17.7558925,
        "longitude": 106.420438
      }
    ]
  },
  {
    "name": "Quang Tri",
    "code": 45,
    "division_type": "Province",
    "districts": [
      {
        "name": "Dong Ha",
        "code": 461,
        "division_type": "City",
        "province_code": 45,
        "latitude": 16.8172845,
        "longitude": 107.1010378
      },
      {
        "name": "Quang Tri",
        "code": 462,
        "division_type": "District",
        "province_code": 45,
        "latitude": 16.7546907,
        "longitude": 107.1895518
      },
      {
        "name": "Vinh Linh",
        "code": 464,
        "division_type": "District",
        "province_code": 45,
        "latitude": 17.025894649999998,
        "longitude": 106.96144351699968
      },
      {
        "name": "Huong Hoa",
        "code": 465,
        "division_type": "District",
        "province_code": 45,
        "latitude": 16.703847500000002,
        "longitude": 106.67767132317005
      },
      {
        "name": "Gio Linh",
        "code": 466,
        "division_type": "District",
        "province_code": 45,
        "latitude": 16.91217625,
        "longitude": 107.0450282007268
      },
      {
        "name": "Da Krong",
        "code": 467,
        "division_type": "District",
        "province_code": 45,
        "latitude": 16.5675564,
        "longitude": 106.97830748564
      },
      {
        "name": "Cam Lo",
        "code": 468,
        "division_type": "District",
        "province_code": 45,
        "latitude": 16.7847145,
        "longitude": 106.94427505884894
      },
      {
        "name": "Trieu Phong",
        "code": 469,
        "division_type": "District",
        "province_code": 45,
        "latitude": 16.776754750000002,
        "longitude": 107.18762783891529
      },
      {
        "name": "Hai Lang",
        "code": 470,
        "division_type": "District",
        "province_code": 45,
        "latitude": 16.6841431,
        "longitude": 107.26056346728579
      },
      {
        "name": "Con Co",
        "code": 471,
        "division_type": "District",
        "province_code": 45,
        "latitude": 17.158597999999998,
        "longitude": 107.33935763961352
      }
    ]
  },
  {
    "name": "Thua Thien Hue",
    "code": 46,
    "division_type": "Province",
    "districts": [
      {
        "name": "Hue",
        "code": 474,
        "division_type": "City",
        "province_code": 46,
        "latitude": 16.4639321,
        "longitude": 107.5863388
      },
      {
        "name": "Phong Dien",
        "code": 476,
        "division_type": "District",
        "province_code": 46,
        "latitude": 16.54409935,
        "longitude": 107.26565022170222
      },
      {
        "name": "Quang Dien",
        "code": 477,
        "division_type": "District",
        "province_code": 46,
        "latitude": 16.5891445,
        "longitude": 107.512176991567
      },
      {
        "name": "Phu Vang",
        "code": 478,
        "division_type": "District",
        "province_code": 46,
        "latitude": 16.4423967,
        "longitude": 107.74402210205596
      },
      {
        "name": "Huong Thuy",
        "code": 479,
        "division_type": "District",
        "province_code": 46,
        "latitude": 16.4115408,
        "longitude": 107.671579
      },
      {
        "name": "Huong Tra",
        "code": 480,
        "division_type": "District",
        "province_code": 46,
        "latitude": 16.40011605,
        "longitude": 107.43979566731063
      },
      {
        "name": "A Luoi",
        "code": 481,
        "division_type": "District",
        "province_code": 46,
        "latitude": 16.2319328,
        "longitude": 107.33770258590611
      },
      {
        "name": "Phu Loc",
        "code": 482,
        "division_type": "District",
        "province_code": 46,
        "latitude": 16.2891469,
        "longitude": 107.86467718145337
      },
      {
        "name": "Nam Dong",
        "code": 483,
        "division_type": "District",
        "province_code": 46,
        "latitude": 16.11828525,
        "longitude": 107.68430891577891
      }
    ]
  },
  {
    "name": "Da Nang",
    "code": 48,
    "division_type": "City",
    "districts": [
      {
        "name": "Lien Chieu",
        "code": 490,
        "division_type": "District",
        "province_code": 48,
        "latitude": 16.12039865,
        "longitude": 108.11323928681657
      },
      {
        "name": "Thanh Khe",
        "code": 491,
        "division_type": "District",
        "province_code": 48,
        "latitude": 16.0532116,
        "longitude": 108.18581298146817
      },
      {
        "name": "Hai Chau",
        "code": 492,
        "division_type": "District",
        "province_code": 48,
        "latitude": 16.059935099999997,
        "longitude": 108.2202354299364
      },
      {
        "name": "Son Tra",
        "code": 493,
        "division_type": "District",
        "province_code": 48,
        "latitude": 16.1038881,
        "longitude": 108.30078171397288
      },
      {
        "name": "Ngu Hanh Son",
        "code": 494,
        "division_type": "District",
        "province_code": 48,
        "latitude": 16.00402,
        "longitude": 108.26277454198583
      },
      {
        "name": "Cam Le",
        "code": 495,
        "division_type": "District",
        "province_code": 48,
        "latitude": 16.016872499999998,
        "longitude": 108.2033510000829
      },
      {
        "name": "Hoa Vang",
        "code": 497,
        "division_type": "District",
        "province_code": 48,
        "latitude": 16.06672735,
        "longitude": 107.96973138638369
      },
      {
        "name": "Hoang Sa",
        "code": 498,
        "division_type": "District",
        "province_code": 48,
        "latitude": 16.0918693,
        "longitude": 108.2509001
      }
    ]
  },
  {
    "name": "Quang Nam",
    "code": 49,
    "division_type": "Province",
    "districts": [
      {
        "name": "Tam Ky",
        "code": 502,
        "division_type": "City",
        "province_code": 49,
        "latitude": 15.5673735,
        "longitude": 108.4842128
      },
      {
        "name": "Hoi An",
        "code": 503,
        "division_type": "City",
        "province_code": 49,
        "latitude": 15.8798137,
        "longitude": 108.3273939
      },
      {
        "name": "Tay Giang",
        "code": 504,
        "division_type": "District",
        "province_code": 49,
        "latitude": 15.89454175,
        "longitude": 107.49731241897022
      },
      {
        "name": "Dong Giang",
        "code": 505,
        "division_type": "District",
        "province_code": 49,
        "latitude": 15.912324,
        "longitude": 107.72580707204077
      },
      {
        "name": "Dai Loc",
        "code": 506,
        "division_type": "District",
        "province_code": 49,
        "latitude": 15.834066,
        "longitude": 107.95424248403194
      },
      {
        "name": "Dien Ban",
        "code": 507,
        "division_type": "District",
        "province_code": 49,
        "latitude": 15.9039742,
        "longitude": 108.2200836
      },
      {
        "name": "Duy Xuyen",
        "code": 508,
        "division_type": "District",
        "province_code": 49,
        "latitude": 15.7928895,
        "longitude": 108.1605745130791
      },
      {
        "name": "Que Son",
        "code": 509,
        "division_type": "District",
        "province_code": 49,
        "latitude": 15.7247795,
        "longitude": 108.24741908024018
      },
      {
        "name": "Nam Giang",
        "code": 510,
        "division_type": "District",
        "province_code": 49,
        "latitude": 15.606755199999998,
        "longitude": 107.60690407793076
      },
      {
        "name": "Phuoc Son",
        "code": 511,
        "division_type": "District",
        "province_code": 49,
        "latitude": 15.3869425,
        "longitude": 107.83666973296891
      },
      {
        "name": "Hiep Duc",
        "code": 512,
        "division_type": "District",
        "province_code": 49,
        "latitude": 15.5183414,
        "longitude": 108.10260688584464
      },
      {
        "name": "Thang Binh",
        "code": 513,
        "division_type": "District",
        "province_code": 49,
        "latitude": 15.7077252,
        "longitude": 108.39703627614333
      },
      {
        "name": "Tien Phuoc",
        "code": 514,
        "division_type": "District",
        "province_code": 49,
        "latitude": 15.4910852,
        "longitude": 108.25550823586187
      },
      {
        "name": "Bac Tra My",
        "code": 515,
        "division_type": "District",
        "province_code": 49,
        "latitude": 15.27711365,
        "longitude": 108.1979448936211
      },
      {
        "name": "Nam Tra My",
        "code": 516,
        "division_type": "District",
        "province_code": 49,
        "latitude": 15.1329227,
        "longitude": 108.11450429949733
      },
      {
        "name": "Nui Thanh",
        "code": 517,
        "division_type": "District",
        "province_code": 49,
        "latitude": 15.4458044,
        "longitude": 108.5596656564463
      },
      {
        "name": "Phu Ninh",
        "code": 518,
        "division_type": "District",
        "province_code": 49,
        "latitude": 15.511074,
        "longitude": 108.42703295569109
      },
      {
        "name": "Nong Son",
        "code": 519,
        "division_type": "District",
        "province_code": 49,
        "latitude": 15.651498400000001,
        "longitude": 107.99459611627468
      }
    ]
  },
  {
    "name": "Quang Ngai",
    "code": 51,
    "division_type": "Province",
    "districts": [
      {
        "name": "Quang Ngai",
        "code": 522,
        "division_type": "City",
        "province_code": 51,
        "latitude": 15.1190037,
        "longitude": 108.8095598
      },
      {
        "name": "Binh Son",
        "code": 524,
        "division_type": "District",
        "province_code": 51,
        "latitude": 15.311219300000001,
        "longitude": 108.72835732335514
      },
      {
        "name": "Tra Bong",
        "code": 525,
        "division_type": "District",
        "province_code": 51,
        "latitude": 15.2087717,
        "longitude": 108.45311719519509
      },
      {
        "name": "Son Tinh",
        "code": 527,
        "division_type": "District",
        "province_code": 51,
        "latitude": 15.311219300000001,
        "longitude": 108.72835732335514
      },
      {
        "name": "Tu Nghia",
        "code": 528,
        "division_type": "District",
        "province_code": 51,
        "latitude": 15.0915895,
        "longitude": 108.77171098920395
      },
      {
        "name": "Son Ha",
        "code": 529,
        "division_type": "District",
        "province_code": 51,
        "latitude": 14.974799149999999,
        "longitude": 108.52441117506055
      },
      {
        "name": "Son Tay",
        "code": 530,
        "division_type": "District",
        "province_code": 51,
        "latitude": 14.96943155,
        "longitude": 108.35560467815029
      },
      {
        "name": "Minh Long",
        "code": 531,
        "division_type": "District",
        "province_code": 51,
        "latitude": 14.9464855,
        "longitude": 108.67604038331649
      },
      {
        "name": "Nghia Hanh",
        "code": 532,
        "division_type": "District",
        "province_code": 51,
        "latitude": 14.9669204,
        "longitude": 108.79793659954498
      },
      {
        "name": "Mo Duc",
        "code": 533,
        "division_type": "District",
        "province_code": 51,
        "latitude": 14.9862642,
        "longitude": 108.88860302779557
      },
      {
        "name": "Duc Pho",
        "code": 534,
        "division_type": "District",
        "province_code": 51,
        "latitude": 14.8178599,
        "longitude": 108.9546371
      },
      {
        "name": "Ba To",
        "code": 535,
        "division_type": "District",
        "province_code": 51,
        "latitude": 14.7153239,
        "longitude": 108.74069865786889
      },
      {
        "name": "Ly Son",
        "code": 536,
        "division_type": "District",
        "province_code": 51,
        "latitude": 15.382041,
        "longitude": 109.1189982
      }
    ]
  },
  {
    "name": "Binh Dinh",
    "code": 52,
    "division_type": "Province",
    "districts": [
      {
        "name": "Quy Nhon",
        "code": 540,
        "division_type": "City",
        "province_code": 52,
        "latitude": 13.770409,
        "longitude": 109.232667
      },
      {
        "name": "An Lao",
        "code": 542,
        "division_type": "District",
        "province_code": 52,
        "latitude": 14.5655964,
        "longitude": 108.7620084
      },
      {
        "name": "Hoai Nhon",
        "code": 543,
        "division_type": "District",
        "province_code": 52,
        "latitude": 14.514937150000002,
        "longitude": 109.01951205449926
      },
      {
        "name": "Hoai an",
        "code": 544,
        "division_type": "District",
        "province_code": 52,
        "latitude": 14.346528,
        "longitude": 108.907238596789
      },
      {
        "name": "Phu My",
        "code": 545,
        "division_type": "District",
        "province_code": 52,
        "latitude": 14.24487345,
        "longitude": 109.10179494932541
      },
      {
        "name": "Vinh Thanh",
        "code": 546,
        "division_type": "District",
        "province_code": 52,
        "latitude": 14.2380395,
        "longitude": 108.74181476174671
      },
      {
        "name": "Tay Son",
        "code": 547,
        "division_type": "District",
        "province_code": 52,
        "latitude": 13.9113472,
        "longitude": 108.809273
      },
      {
        "name": "Phu Cat",
        "code": 548,
        "division_type": "District",
        "province_code": 52,
        "latitude": 14.061683500000001,
        "longitude": 109.0669996788363
      },
      {
        "name": "An Nhon",
        "code": 549,
        "division_type": "District",
        "province_code": 52,
        "latitude": 13.857558000000001,
        "longitude": 109.06631028176767
      },
      {
        "name": "Tuy Phuoc",
        "code": 550,
        "division_type": "District",
        "province_code": 52,
        "latitude": 13.841246000000002,
        "longitude": 109.1792851676274
      },
      {
        "name": "Van Canh",
        "code": 551,
        "division_type": "District",
        "province_code": 52,
        "latitude": 13.6749805,
        "longitude": 108.95723272497106
      }
    ]
  },
  {
    "name": "Phu Yen",
    "code": 54,
    "division_type": "Province",
    "districts": [
      {
        "name": "Tuy Hoa",
        "code": 555,
        "division_type": "City",
        "province_code": 54,
        "latitude": 13.0877226,
        "longitude": 109.2993584
      },
      {
        "name": "Song Cau",
        "code": 557,
        "division_type": "District",
        "province_code": 54,
        "latitude": 13.512057,
        "longitude": 109.189791
      },
      {
        "name": "Dong Xuan",
        "code": 558,
        "division_type": "District",
        "province_code": 54,
        "latitude": 13.413470499999999,
        "longitude": 108.97270645131974
      },
      {
        "name": "Tuy An",
        "code": 559,
        "division_type": "District",
        "province_code": 54,
        "latitude": 13.254778550000001,
        "longitude": 109.21057086828677
      },
      {
        "name": "Son Hoa",
        "code": 560,
        "division_type": "District",
        "province_code": 54,
        "latitude": 13.2054008,
        "longitude": 108.98742535620418
      },
      {
        "name": "Song Hinh",
        "code": 561,
        "division_type": "District",
        "province_code": 54,
        "latitude": 12.903483300000001,
        "longitude": 108.89515231289286
      },
      {
        "name": "Tay Hoa",
        "code": 562,
        "division_type": "District",
        "province_code": 54,
        "latitude": 12.91629825,
        "longitude": 109.16367720663897
      },
      {
        "name": "Phu Hoa",
        "code": 563,
        "division_type": "District",
        "province_code": 54,
        "latitude": 13.0198352,
        "longitude": 109.2124432
      },
      {
        "name": "Dong Hoa",
        "code": 564,
        "division_type": "District",
        "province_code": 54,
        "latitude": 12.9897858,
        "longitude": 109.3335839
      }
    ]
  },
  {
    "name": "Khanh Hoa",
    "code": 56,
    "division_type": "Province",
    "districts": [
      {
        "name": "Nha Trang",
        "code": 568,
        "division_type": "City",
        "province_code": 56,
        "latitude": 12.2431693,
        "longitude": 109.1898675
      },
      {
        "name": "Cam Ranh",
        "code": 569,
        "division_type": "City",
        "province_code": 56,
        "latitude": 11.9166696,
        "longitude": 109.14861
      },
      {
        "name": "Cam Lam",
        "code": 570,
        "division_type": "District",
        "province_code": 56,
        "latitude": 12.0535393,
        "longitude": 109.1186763
      },
      {
        "name": "Van Ninh",
        "code": 571,
        "division_type": "District",
        "province_code": 56,
        "latitude": 12.6997797,
        "longitude": 109.226297
      },
      {
        "name": "Ninh Hoa",
        "code": 572,
        "division_type": "District",
        "province_code": 56,
        "latitude": 12.548103600000001,
        "longitude": 109.06206698803544
      },
      {
        "name": "Khanh Vinh",
        "code": 573,
        "division_type": "District",
        "province_code": 56,
        "latitude": 12.2772637,
        "longitude": 108.9038873
      },
      {
        "name": "Dien Khanh",
        "code": 574,
        "division_type": "District",
        "province_code": 56,
        "latitude": 12.259376,
        "longitude": 109.1007971
      },
      {
        "name": "Khanh Son",
        "code": 575,
        "division_type": "District",
        "province_code": 56,
        "latitude": 12.037060199999999,
        "longitude": 108.91044263830209
      },
      {
        "name": "Truong Sa",
        "code": 576,
        "division_type": "District",
        "province_code": 56,
        "latitude": 8.8250687,
        "longitude": 112.60557204083483
      }
    ]
  },
  {
    "name": "Ninh Thuan",
    "code": 58,
    "division_type": "Province",
    "districts": [
      {
        "name": "Phan Rang-Thap Cham",
        "code": 582,
        "division_type": "City",
        "province_code": 58,
        "latitude": 11.5769829,
        "longitude": 108.9865391
      },
      {
        "name": "Bac Ai",
        "code": 584,
        "division_type": "District",
        "province_code": 58,
        "latitude": 11.8410512,
        "longitude": 108.9044088
      },
      {
        "name": "Ninh Son",
        "code": 585,
        "division_type": "District",
        "province_code": 58,
        "latitude": 11.71074725,
        "longitude": 108.80093167410769
      },
      {
        "name": "Ninh Hai",
        "code": 586,
        "division_type": "District",
        "province_code": 58,
        "latitude": 11.67456415,
        "longitude": 109.15270581576598
      },
      {
        "name": "Ninh Phuoc",
        "code": 587,
        "division_type": "District",
        "province_code": 58,
        "latitude": 11.561746800000002,
        "longitude": 108.88078907490012
      },
      {
        "name": "Thuan Bac",
        "code": 588,
        "division_type": "District",
        "province_code": 58,
        "latitude": 11.74394535,
        "longitude": 109.05885190846185
      },
      {
        "name": "Thuan Nam",
        "code": 589,
        "division_type": "District",
        "province_code": 58,
        "latitude": 11.450913700000001,
        "longitude": 108.88609927869771
      }
    ]
  },
  {
    "name": "Binh Thuan",
    "code": 60,
    "division_type": "Province",
    "districts": [
      {
        "name": "Phan Thiet",
        "code": 593,
        "division_type": "City",
        "province_code": 60,
        "latitude": 10.931025,
        "longitude": 108.1014632
      },
      {
        "name": "La Gi",
        "code": 594,
        "division_type": "District",
        "province_code": 60,
        "latitude": 10.6588219,
        "longitude": 107.7731192
      },
      {
        "name": "Tuy Phong",
        "code": 595,
        "division_type": "District",
        "province_code": 60,
        "latitude": 11.3404663,
        "longitude": 108.74464221904033
      },
      {
        "name": "Bac Binh",
        "code": 596,
        "division_type": "District",
        "province_code": 60,
        "latitude": 11.263696,
        "longitude": 108.35992032714009
      },
      {
        "name": "Ham Thuan Bac",
        "code": 597,
        "division_type": "District",
        "province_code": 60,
        "latitude": 10.9985792,
        "longitude": 108.1581729
      },
      {
        "name": "Ham Thuan Nam",
        "code": 598,
        "division_type": "District",
        "province_code": 60,
        "latitude": 10.93295425,
        "longitude": 108.00572751840915
      },
      {
        "name": "Tanh Linh",
        "code": 599,
        "division_type": "District",
        "province_code": 60,
        "latitude": 11.139417,
        "longitude": 107.68328102167416
      },
      {
        "name": "Duc Linh",
        "code": 600,
        "division_type": "District",
        "province_code": 60,
        "latitude": 11.194317,
        "longitude": 107.53421319937695
      },
      {
        "name": "Ham Tan",
        "code": 601,
        "division_type": "District",
        "province_code": 60,
        "latitude": 10.7437653,
        "longitude": 107.63356224337726
      },
      {
        "name": "Phu Qui",
        "code": 602,
        "division_type": "District",
        "province_code": 60,
        "latitude": 10.536288,
        "longitude": 108.946332
      }
    ]
  },
  {
    "name": "Kon Tum",
    "code": 62,
    "division_type": "Province",
    "districts": [
      {
        "name": "Kon Tum",
        "code": 608,
        "division_type": "City",
        "province_code": 62,
        "latitude": 14.3615256,
        "longitude": 108.0039102
      },
      {
        "name": "Dak Glei",
        "code": 610,
        "division_type": "District",
        "province_code": 62,
        "latitude": 15.086417,
        "longitude": 107.735768
      },
      {
        "name": "Ngoc Hoi",
        "code": 611,
        "division_type": "District",
        "province_code": 62,
        "latitude": 14.7393803,
        "longitude": 107.6202686694541
      },
      {
        "name": "Dak To",
        "code": 612,
        "division_type": "District",
        "province_code": 62,
        "latitude": 14.6612477,
        "longitude": 107.840036
      },
      {
        "name": "Kon Plong",
        "code": 613,
        "division_type": "District",
        "province_code": 62,
        "latitude": 14.802872050000001,
        "longitude": 108.28906602563775
      },
      {
        "name": "Kon Ray",
        "code": 614,
        "division_type": "District",
        "province_code": 62,
        "latitude": 14.549714,
        "longitude": 108.22796538044854
      },
      {
        "name": "Dak Ha",
        "code": 615,
        "division_type": "District",
        "province_code": 62,
        "latitude": 14.5133455,
        "longitude": 107.9215147
      },
      {
        "name": "Sa Thay",
        "code": 616,
        "division_type": "District",
        "province_code": 62,
        "latitude": 14.4076248,
        "longitude": 107.6761253555797
      },
      {
        "name": "Tu Mo Rong",
        "code": 617,
        "division_type": "District",
        "province_code": 62,
        "latitude": 14.8213608,
        "longitude": 107.9460704
      },
      {
        "name": "Ia H' Drai",
        "code": 618,
        "division_type": "District",
        "province_code": 62,
        "latitude": 14.103882,
        "longitude": 107.45466
      }
    ]
  },
  {
    "name": "Gia Lai",
    "code": 64,
    "division_type": "Province",
    "districts": [
      {
        "name": "Pleiku",
        "code": 622,
        "division_type": "City",
        "province_code": 64,
        "latitude": 13.9715982,
        "longitude": 108.0143597
      },
      {
        "name": "An Khe",
        "code": 623,
        "division_type": "District",
        "province_code": 64,
        "latitude": 14.0221216,
        "longitude": 108.69422150756694
      },
      {
        "name": "Ayun Pa",
        "code": 624,
        "division_type": "District",
        "province_code": 64,
        "latitude": 13.3111375,
        "longitude": 108.42486410412874
      },
      {
        "name": "KBang",
        "code": 625,
        "division_type": "District",
        "province_code": 64,
        "latitude": 14.301794600000001,
        "longitude": 108.47937459255267
      },
      {
        "name": "Dak Doa",
        "code": 626,
        "division_type": "District",
        "province_code": 64,
        "latitude": 14.1846952,
        "longitude": 108.10607172356522
      },
      {
        "name": "Chu Pah",
        "code": 627,
        "division_type": "District",
        "province_code": 64,
        "latitude": 14.222075499999999,
        "longitude": 107.97107446802119
      },
      {
        "name": "Ia Grai",
        "code": 628,
        "division_type": "District",
        "province_code": 64,
        "latitude": 13.990353899999999,
        "longitude": 107.75625852801647
      },
      {
        "name": "Mang Yang",
        "code": 629,
        "division_type": "District",
        "province_code": 64,
        "latitude": 13.956394199999998,
        "longitude": 108.31598800727713
      },
      {
        "name": "Kong Chro",
        "code": 630,
        "division_type": "District",
        "province_code": 64,
        "latitude": 13.76235545,
        "longitude": 108.59066693938226
      },
      {
        "name": "Duc Co",
        "code": 631,
        "division_type": "District",
        "province_code": 64,
        "latitude": 13.7715552,
        "longitude": 107.65923805336625
      },
      {
        "name": "Chu Prong",
        "code": 632,
        "division_type": "District",
        "province_code": 64,
        "latitude": 13.5919097,
        "longitude": 107.76766898747725
      },
      {
        "name": "Chu Se",
        "code": 633,
        "division_type": "District",
        "province_code": 64,
        "latitude": 13.6980161,
        "longitude": 108.09586188392815
      },
      {
        "name": "Dak Po",
        "code": 634,
        "division_type": "District",
        "province_code": 64,
        "latitude": 13.9286381,
        "longitude": 108.60482178285714
      },
      {
        "name": "Ia Pa",
        "code": 635,
        "division_type": "District",
        "province_code": 64,
        "latitude": 13.52690085,
        "longitude": 108.577835369865
      },
      {
        "name": "Krong Pa",
        "code": 637,
        "division_type": "District",
        "province_code": 64,
        "latitude": 13.2348415,
        "longitude": 108.6668368242042
      },
      {
        "name": "Phu Thien",
        "code": 638,
        "division_type": "District",
        "province_code": 64,
        "latitude": 13.506160000000001,
        "longitude": 108.32629239570144
      },
      {
        "name": "Chu Puh",
        "code": 639,
        "division_type": "District",
        "province_code": 64,
        "latitude": 13.5086136,
        "longitude": 108.07913603684142
      }
    ]
  },
  {
    "name": "Dak Lak",
    "code": 66,
    "division_type": "Province",
    "districts": [
      {
        "name": "Buon Ma Thuot",
        "code": 643,
        "division_type": "City",
        "province_code": 66,
        "latitude": 12.6796827,
        "longitude": 108.0447368
      },
      {
        "name": "Buon Ho",
        "code": 644,
        "division_type": "District",
        "province_code": 66,
        "latitude": 12.9187424,
        "longitude": 108.2668299
      },
      {
        "name": "Ea H'leo",
        "code": 645,
        "division_type": "District",
        "province_code": 66,
        "latitude": 13.23196935,
        "longitude": 108.19922259424307
      },
      {
        "name": "Ea Sup",
        "code": 646,
        "division_type": "District",
        "province_code": 66,
        "latitude": 13.1801411,
        "longitude": 107.770971694899
      },